{"type": "FeatureCollection","crs":                     {"type": "name", "properties": { "name":                     "urn:ogc:def:crs:OGC:1.3:CRS84" } },"features": [{"type": "Feature", "properties": {"name": "Abu-Wajna", "total": 4427}, "geometry": {"type": "Point", "coordinates": [42.624142, 36.692167]}}, {"type": "Feature", "properties": {"name": "Abu_Ghraib", "total": 1047}, "geometry": {"type": "Point", "coordinates": [44.082918, 33.29612]}}, {"type": "Feature", "properties": {"name": "Afak Road Houses", "total": 189}, "geometry": {"type": "Point", "coordinates": [44.886024, 31.971957]}}, {"type": "Feature", "properties": {"name": "Aiden  New Alyawa", "total": 732}, "geometry": {"type": "Point", "coordinates": [44.6130416667, 33.7161183333]}}, {"type": "Feature", "properties": {"name": "Al Bakriya", "total": 81}, "geometry": {"type": "Point", "coordinates": [44.2571733333, 33.3204583333]}}, {"type": "Feature", "properties": {"name": "Al Hussain Medical City", "total": 380}, "geometry": {"type": "Point", "coordinates": [44.0327316667, 32.6070233333]}}, {"type": "Feature", "properties": {"name": "Al Shaabi", "total": 368}, "geometry": {"type": "Point", "coordinates": [44.333194, 35.503444]}}, {"type": "Feature", "properties": {"name": "Al-Abayechi", "total": 136}, "geometry": {"type": "Point", "coordinates": [44.390423, 33.661975]}}, {"type": "Feature", "properties": {"name": "Al-Ahell", "total": 1470}, "geometry": {"type": "Point", "coordinates": [44.083895, 33.283734]}}, {"type": "Feature", "properties": {"name": "Al-Alam", "total": 1242}, "geometry": {"type": "Point", "coordinates": [43.701102, 34.710135]}}, {"type": "Feature", "properties": {"name": "Al-Amal", "total": 12133}, "geometry": {"type": "Point", "coordinates": [42.25, 32.03]}}, {"type": "Feature", "properties": {"name": "Al-Amal Al-Manshud", "total": 2438}, "geometry": {"type": "Point", "coordinates": [44.034211, 33.307281]}}, {"type": "Feature", "properties": {"name": "Al-Batar", "total": 44}, "geometry": {"type": "Point", "coordinates": [45.7161566667, 32.5518166667]}}, {"type": "Feature", "properties": {"name": "Al-Habanyia", "total": 691}, "geometry": {"type": "Point", "coordinates": [43.571611, 33.2448]}}, {"type": "Feature", "properties": {"name": "Al-Mahdi", "total": 4}, "geometry": {"type": "Point", "coordinates": [45.2400633333, 31.3238933333]}}, {"type": "Feature", "properties": {"name": "Al-Mawqee Al-Askary", "total": 124}, "geometry": {"type": "Point", "coordinates": [44.922727, 31.980004]}}, {"type": "Feature", "properties": {"name": "Al-Nabi Younis", "total": 77}, "geometry": {"type": "Point", "coordinates": [44.643067, 33.344709]}}, {"type": "Feature", "properties": {"name": "Al-Nasr Wa Al-Salam", "total": 321}, "geometry": {"type": "Point", "coordinates": [44.029029, 33.309256]}}, {"type": "Feature", "properties": {"name": "Al-Nedaa Mosque", "total": 306}, "geometry": {"type": "Point", "coordinates": [44.384234, 33.37447]}}, {"type": "Feature", "properties": {"name": "Al-Obaidi", "total": 3224}, "geometry": {"type": "Point", "coordinates": [41.219072, 34.417309]}}, {"type": "Feature", "properties": {"name": "Al-Salam", "total": 30101}, "geometry": {"type": "Point", "coordinates": [43.85, 33.16]}}, {"type": "Feature", "properties": {"name": "Al-Wand 1", "total": 590}, "geometry": {"type": "Point", "coordinates": [44.6126683333, 33.7161783333]}}, {"type": "Feature", "properties": {"name": "Alaskan", "total": 423}, "geometry": {"type": "Point", "coordinates": [44.9220183333, 31.99781]}}, {"type": "Feature", "properties": {"name": "Aliawa", "total": 873}, "geometry": {"type": "Point", "coordinates": [45.326362, 34.342164]}}, {"type": "Feature", "properties": {"name": "Aljanib Alsageer", "total": 108}, "geometry": {"type": "Point", "coordinates": [44.0323516667, 32.6067416667]}}, {"type": "Feature", "properties": {"name": "All Mohanaweia And All Salaheias Mawakeb", "total": 25}, "geometry": {"type": "Point", "coordinates": [44.934263, 32.1424]}}, {"type": "Feature", "properties": {"name": "All Shohadaa Complex", "total": 342}, "geometry": {"type": "Point", "coordinates": [47.02127, 30.9715216667]}}, {"type": "Feature", "properties": {"name": "Allai", "total": 122}, "geometry": {"type": "Point", "coordinates": [45.17624, 35.58074]}}, {"type": "Feature", "properties": {"name": "Alscak", "total": 5}, "geometry": {"type": "Point", "coordinates": [45.2719416667, 31.339005]}}, {"type": "Feature", "properties": {"name": "Ankawa-Mall", "total": 1911}, "geometry": {"type": "Point", "coordinates": [43.99, 36.22]}}, {"type": "Feature", "properties": {"name": "Arbat Idp", "total": 30117}, "geometry": {"type": "Point", "coordinates": [45.590574, 35.4344959]}}, {"type": "Feature", "properties": {"name": "Arbat Refugee", "total": 18200}, "geometry": {"type": "Point", "coordinates": [45.59069, 35.43057]}}, {"type": "Feature", "properties": {"name": "Ashti", "total": 4625}, "geometry": {"type": "Point", "coordinates": [45.58862, 35.422128]}}, {"type": "Feature", "properties": {"name": "Awen Eshar", "total": 2607}, "geometry": {"type": "Point", "coordinates": [44.07536, 36.1157]}}, {"type": "Feature", "properties": {"name": "Babil Hotel", "total": 1245}, "geometry": {"type": "Point", "coordinates": [44.4350483333, 32.5156083333]}}, {"type": "Feature", "properties": {"name": "Baharka", "total": 21028}, "geometry": {"type": "Point", "coordinates": [44.03, 36.31]}}, {"type": "Feature", "properties": {"name": "Bajit Kandala", "total": 34135}, "geometry": {"type": "Point", "coordinates": [42.4409, 37.0535]}}, {"type": "Feature", "properties": {"name": "Bajit Kandala2", "total": 2335}, "geometry": {"type": "Point", "coordinates": [42.4409, 37.0535]}}, {"type": "Feature", "properties": {"name": "Bajwan", "total": 200}, "geometry": {"type": "Point", "coordinates": [44.282111, 35.539778]}}, {"type": "Feature", "properties": {"name": "Balad", "total": 3323}, "geometry": {"type": "Point", "coordinates": [44.11873, 34.038703]}}, {"type": "Feature", "properties": {"name": "Baraam Al Wazeriya", "total": 18}, "geometry": {"type": "Point", "coordinates": [44.382445, 33.365288]}}, {"type": "Feature", "properties": {"name": "Bardarash", "total": 24916}, "geometry": {"type": "Point", "coordinates": [43.56717, 36.49315]}}, {"type": "Feature", "properties": {"name": "Barika", "total": 1671}, "geometry": {"type": "Point", "coordinates": [45.44, 35.56]}}, {"type": "Feature", "properties": {"name": "Bariz City", "total": 462}, "geometry": {"type": "Point", "coordinates": [45.44, 35.56]}}, {"type": "Feature", "properties": {"name": "Bashair", "total": 26}, "geometry": {"type": "Point", "coordinates": [46.24121, 31.0636466667]}}, {"type": "Feature", "properties": {"name": "Basirma", "total": 20334}, "geometry": {"type": "Point", "coordinates": [44.3667, 36.4833]}}, {"type": "Feature", "properties": {"name": "Basrah 5Miles", "total": 1459}, "geometry": {"type": "Point", "coordinates": [47.7596, 30.5497683333]}}, {"type": "Feature", "properties": {"name": "Berseve 2", "total": 12855}, "geometry": {"type": "Point", "coordinates": [42.85398, 37.1798]}}, {"type": "Feature", "properties": {"name": "Brazilian", "total": 2252}, "geometry": {"type": "Point", "coordinates": [44.03, 36.31]}}, {"type": "Feature", "properties": {"name": "Bzsbiz", "total": 36}, "geometry": {"type": "Point", "coordinates": [44.035353, 33.139835]}}, {"type": "Feature", "properties": {"name": "Caravanat Al Zurgan", "total": 148}, "geometry": {"type": "Point", "coordinates": [45.7161266667, 32.551865]}}, {"type": "Feature", "properties": {"name": "Chamchamal", "total": 4643}, "geometry": {"type": "Point", "coordinates": [44.8283983333, 35.5183683333]}}, {"type": "Feature", "properties": {"name": "Chamishku", "total": 17494}, "geometry": {"type": "Point", "coordinates": [42.668, 37.178]}}, {"type": "Feature", "properties": {"name": "Dahuk", "total": 5253}, "geometry": {"type": "Point", "coordinates": [42.949419, 36.864712]}}, {"type": "Feature", "properties": {"name": "Darashakran", "total": 43000}, "geometry": {"type": "Point", "coordinates": [43.893692, 36.46948]}}, {"type": "Feature", "properties": {"name": "Dawanesh", "total": 352}, "geometry": {"type": "Point", "coordinates": [42.855292, 36.504894]}}, {"type": "Feature", "properties": {"name": "Dawodia", "total": 11026}, "geometry": {"type": "Point", "coordinates": [43.222998, 37.089891]}}, {"type": "Feature", "properties": {"name": "Debaga", "total": 9724}, "geometry": {"type": "Point", "coordinates": [43.9940783333, 36.2194683333]}}, {"type": "Feature", "properties": {"name": "Dokan", "total": 5391}, "geometry": {"type": "Point", "coordinates": [45.44, 35.56]}}, {"type": "Feature", "properties": {"name": "Domez", "total": 672}, "geometry": {"type": "Point", "coordinates": [44.3766466667, 35.3857416667]}}, {"type": "Feature", "properties": {"name": "Domiz", "total": 18681}, "geometry": {"type": "Point", "coordinates": [42.900624, 36.788012]}}, {"type": "Feature", "properties": {"name": "Domiz2", "total": 7733}, "geometry": {"type": "Point", "coordinates": [42.900624, 36.788012]}}, {"type": "Feature", "properties": {"name": "Ekram Zobaa", "total": 319}, "geometry": {"type": "Point", "coordinates": [43.953276, 33.22936]}}, {"type": "Feature", "properties": {"name": "Erbil", "total": 532}, "geometry": {"type": "Point", "coordinates": [44.0, 36.19]}}, {"type": "Feature", "properties": {"name": "Erbil Center", "total": 1650}, "geometry": {"type": "Point", "coordinates": [44.0, 36.19]}}, {"type": "Feature", "properties": {"name": "Esiyan", "total": 623}, "geometry": {"type": "Point", "coordinates": [43.26904, 36.72461]}}, {"type": "Feature", "properties": {"name": "Eyes Of Missan", "total": 878}, "geometry": {"type": "Point", "coordinates": [47.117555, 31.8490766667]}}, {"type": "Feature", "properties": {"name": "Garmawa", "total": 923}, "geometry": {"type": "Point", "coordinates": [43.237, 36.646885]}}, {"type": "Feature", "properties": {"name": "Gawilan", "total": 21681}, "geometry": {"type": "Point", "coordinates": [43.61581064, 36.33849565]}}, {"type": "Feature", "properties": {"name": "Group In  V. Alhadi", "total": 2}, "geometry": {"type": "Point", "coordinates": [45.3162816667, 31.2573566667]}}, {"type": "Feature", "properties": {"name": "Gulan City", "total": 1030}, "geometry": {"type": "Point", "coordinates": [43.9941316667, 36.21935]}}, {"type": "Feature", "properties": {"name": "Guss Swalem", "total": 1376}, "geometry": {"type": "Point", "coordinates": [44.403805, 32.4185216667]}}, {"type": "Feature", "properties": {"name": "Habeeb Almalih Hc", "total": 2662}, "geometry": {"type": "Point", "coordinates": [44.0110733333, 36.2319566667]}}, {"type": "Feature", "properties": {"name": "Harsham", "total": 10081}, "geometry": {"type": "Point", "coordinates": [43.994913, 36.256285]}}, {"type": "Feature", "properties": {"name": "Hay Al Furat - 1", "total": 18}, "geometry": {"type": "Point", "coordinates": [44.90795, 32.010288]}}, {"type": "Feature", "properties": {"name": "Hay Al Furat - 2", "total": 15}, "geometry": {"type": "Point", "coordinates": [44.902471, 32.019229]}}, {"type": "Feature", "properties": {"name": "Hay Alwasiti", "total": 181}, "geometry": {"type": "Point", "coordinates": [44.348578, 35.420021]}}, {"type": "Feature", "properties": {"name": "Hay Asraa", "total": 614}, "geometry": {"type": "Point", "coordinates": [44.402439, 35.429539]}}, {"type": "Feature", "properties": {"name": "Hevi", "total": 755}, "geometry": {"type": "Point", "coordinates": [43.00589, 36.850119]}}, {"type": "Feature", "properties": {"name": "Huzairan", "total": 231}, "geometry": {"type": "Point", "coordinates": [44.342891, 35.409465]}}, {"type": "Feature", "properties": {"name": "Iraq_Tent\n", "total": 1026}, "geometry": {"type": "Point", "coordinates": [44.3564116667, 33.12995]}}, {"type": "Feature", "properties": {"name": "Kabarto 2", "total": 22888}, "geometry": {"type": "Point", "coordinates": [42.8584683333, 36.78845]}}, {"type": "Feature", "properties": {"name": "Kalak", "total": 1150}, "geometry": {"type": "Point", "coordinates": [43.673424, 36.272136]}}, {"type": "Feature", "properties": {"name": "Kasnazan", "total": 329}, "geometry": {"type": "Point", "coordinates": [44.13, 36.2]}}, {"type": "Feature", "properties": {"name": "Kerbala", "total": 263}, "geometry": {"type": "Point", "coordinates": [44.07268, 32.5577783333]}}, {"type": "Feature", "properties": {"name": "Khanke", "total": 3960}, "geometry": {"type": "Point", "coordinates": [42.7709883333, 36.7831166667]}}, {"type": "Feature", "properties": {"name": "Khernabat Agiculture", "total": 1160}, "geometry": {"type": "Point", "coordinates": [44.192407, 33.22229]}}, {"type": "Feature", "properties": {"name": "Kowergosek", "total": 40314}, "geometry": {"type": "Point", "coordinates": [43.8112815, 36.3460809]}}, {"type": "Feature", "properties": {"name": "Kumait Cente", "total": 329}, "geometry": {"type": "Point", "coordinates": [46.8829733333, 32.031695]}}, {"type": "Feature", "properties": {"name": "Laylan", "total": 63}, "geometry": {"type": "Point", "coordinates": [45.38222, 35.5795583333]}}, {"type": "Feature", "properties": {"name": "Ma Baina Al Harameen", "total": 145}, "geometry": {"type": "Point", "coordinates": [44.3131433333, 32.176755]}}, {"type": "Feature", "properties": {"name": "Mamilian", "total": 13473}, "geometry": {"type": "Point", "coordinates": [42.9640166667, 36.8715366667]}}, {"type": "Feature", "properties": {"name": "Mamzawa", "total": 2255}, "geometry": {"type": "Point", "coordinates": [43.96, 36.11]}}, {"type": "Feature", "properties": {"name": "Mangesh\n", "total": 972}, "geometry": {"type": "Point", "coordinates": [43.016503, 36.855727]}}, {"type": "Feature", "properties": {"name": "Mart Shmoni _Kasnazan", "total": 9932}, "geometry": {"type": "Point", "coordinates": [44.13, 36.2]}}, {"type": "Feature", "properties": {"name": "Martshmoony", "total": 32459}, "geometry": {"type": "Point", "coordinates": [44.13, 36.2]}}, {"type": "Feature", "properties": {"name": "Modern Village", "total": 83}, "geometry": {"type": "Point", "coordinates": [44.9179566667, 31.9878833333]}}, {"type": "Feature", "properties": {"name": "Mokb", "total": 30}, "geometry": {"type": "Point", "coordinates": [44.922185, 31.997605]}}, {"type": "Feature", "properties": {"name": "Mosqnes", "total": 41}, "geometry": {"type": "Point", "coordinates": [44.9825216667, 31.7175966667]}}, {"type": "Feature", "properties": {"name": "Mosquest And Modernvillage", "total": 79}, "geometry": {"type": "Point", "coordinates": [44.98245, 31.7175883333]}}, {"type": "Feature", "properties": {"name": "Musharaf Abeet", "total": 586}, "geometry": {"type": "Point", "coordinates": [42.828946, 36.511345]}}, {"type": "Feature", "properties": {"name": "Ozal City", "total": 447}, "geometry": {"type": "Point", "coordinates": [44.1441783333, 36.2246133333]}}, {"type": "Feature", "properties": {"name": "Piramagroon", "total": 5907}, "geometry": {"type": "Point", "coordinates": [45.146705, 35.7328933333]}}, {"type": "Feature", "properties": {"name": "Qadissia", "total": 166}, "geometry": {"type": "Point", "coordinates": [44.421178, 35.415974]}}, {"type": "Feature", "properties": {"name": "Qaladiza", "total": 1746}, "geometry": {"type": "Point", "coordinates": [45.127778, 36.183333]}}, {"type": "Feature", "properties": {"name": "Qalat Salih", "total": 1}, "geometry": {"type": "Point", "coordinates": [47.284695, 31.631981]}}, {"type": "Feature", "properties": {"name": "Qoratu", "total": 9427}, "geometry": {"type": "Point", "coordinates": [45.28, 34.63]}}, {"type": "Feature", "properties": {"name": "Qushtapa", "total": 18897}, "geometry": {"type": "Point", "coordinates": [43.98089111, 36.019313]}}, {"type": "Feature", "properties": {"name": "Raberin", "total": 356}, "geometry": {"type": "Point", "coordinates": [45.24527778, 34.65944444]}}, {"type": "Feature", "properties": {"name": "Raniya", "total": 7157}, "geometry": {"type": "Point", "coordinates": [45.44, 35.56]}}, {"type": "Feature", "properties": {"name": "Saad", "total": 397}, "geometry": {"type": "Point", "coordinates": [44.6127366667, 33.716135]}}, {"type": "Feature", "properties": {"name": "Saba Al Bor", "total": 546}, "geometry": {"type": "Point", "coordinates": [44.15151, 33.459903]}}, {"type": "Feature", "properties": {"name": "Said Alshuhdaa", "total": 637}, "geometry": {"type": "Point", "coordinates": [44.3249583333, 32.1200216667]}}, {"type": "Feature", "properties": {"name": "Salah-Aga", "total": 215}, "geometry": {"type": "Point", "coordinates": [45.28, 34.63]}}, {"type": "Feature", "properties": {"name": "Says City", "total": 450}, "geometry": {"type": "Point", "coordinates": [45.68, 35.11]}}, {"type": "Feature", "properties": {"name": "Seage", "total": 6247}, "geometry": {"type": "Point", "coordinates": [42.8863416667, 36.91248]}}, {"type": "Feature", "properties": {"name": "Seberden", "total": 2520}, "geometry": {"type": "Point", "coordinates": [44.1002, 36.2039]}}, {"type": "Feature", "properties": {"name": "Shahan City", "total": 8815}, "geometry": {"type": "Point", "coordinates": [44.0, 36.19]}}, {"type": "Feature", "properties": {"name": "Shaqlawa", "total": 4259}, "geometry": {"type": "Point", "coordinates": [44.33, 36.39]}}, {"type": "Feature", "properties": {"name": "Sharya", "total": 77606}, "geometry": {"type": "Point", "coordinates": [42.96181, 36.79687]}}, {"type": "Feature", "properties": {"name": "Shawees", "total": 1474}, "geometry": {"type": "Point", "coordinates": [44.08, 36.24]}}, {"type": "Feature", "properties": {"name": "Shikhan", "total": 16797}, "geometry": {"type": "Point", "coordinates": [43.26904, 36.72461]}}, {"type": "Feature", "properties": {"name": "Silo Road", "total": 73}, "geometry": {"type": "Point", "coordinates": [44.908741, 31.927306]}}, {"type": "Feature", "properties": {"name": "Sitak", "total": 633}, "geometry": {"type": "Point", "coordinates": [45.44, 35.56]}}, {"type": "Feature", "properties": {"name": "Sulaymaniyah", "total": 2590}, "geometry": {"type": "Point", "coordinates": [45.2288683333, 35.6296916667]}}, {"type": "Feature", "properties": {"name": "Sulaymaniyah Center", "total": 1038}, "geometry": {"type": "Point", "coordinates": [45.44, 35.56]}}, {"type": "Feature", "properties": {"name": "Takya", "total": 1231}, "geometry": {"type": "Point", "coordinates": [44.3691483333, 33.2256666667]}}, {"type": "Feature", "properties": {"name": "Tanjaro", "total": 222}, "geometry": {"type": "Point", "coordinates": [45.592762, 35.42836]}}, {"type": "Feature", "properties": {"name": "Tarmiya", "total": 176}, "geometry": {"type": "Point", "coordinates": [44.382769, 33.662647]}}, {"type": "Feature", "properties": {"name": "Tazar De", "total": 6630}, "geometry": {"type": "Point", "coordinates": [45.44898, 34.70576]}}, {"type": "Feature", "properties": {"name": "Topaskar", "total": 179}, "geometry": {"type": "Point", "coordinates": [45.28, 34.63]}}, {"type": "Feature", "properties": {"name": "Topzawa", "total": 326}, "geometry": {"type": "Point", "coordinates": [44.2797966667, 35.3939066667]}}, {"type": "Feature", "properties": {"name": "Turkalan", "total": 90}, "geometry": {"type": "Point", "coordinates": [44.2760433333, 35.38102]}}, {"type": "Feature", "properties": {"name": "Um _Baneen", "total": 3479}, "geometry": {"type": "Point", "coordinates": [44.0323666667, 32.6068866667]}}, {"type": "Feature", "properties": {"name": "Wana", "total": 15610}, "geometry": {"type": "Point", "coordinates": [42.84, 36.85]}}, {"type": "Feature", "properties": {"name": "Ya Hussien", "total": 171}, "geometry": {"type": "Point", "coordinates": [44.32, 32.015277]}}, {"type": "Feature", "properties": {"name": "Yahyawa", "total": 6578}, "geometry": {"type": "Point", "coordinates": [44.4941966667, 35.3266966667]}}, {"type": "Feature", "properties": {"name": "Zawita", "total": 6465}, "geometry": {"type": "Point", "coordinates": [43.12, 36.9]}}, {"type": "Feature", "properties": {"name": "Zaytona", "total": 15118}, "geometry": {"type": "Point", "coordinates": [44.0709, 36.1417]}}, {"type": "Feature", "properties": {"name": "Zeren City", "total": 230}, "geometry": {"type": "Point", "coordinates": [44.0381, 36.2791]}}, {"type": "Feature", "properties": {"name": "Zubydia", "total": 38}, "geometry": {"type": "Point", "coordinates": [45.1595183333, 32.77424]}}, {"type": "Feature", "properties": {"name": "Zummar", "total": 9343}, "geometry": {"type": "Point", "coordinates": [42.63, 36.76]}}]}