{"type": "FeatureCollection","crs":                     {"type": "name", "properties": { "name":                     "urn:ogc:def:crs:OGC:1.3:CRS84" } },"features": [{"type": "Feature", "properties": {"name": "Abu-Wajna", "total": 1044}, "geometry": {"type": "Point", "coordinates": [42.624142, 36.692167]}}, {"type": "Feature", "properties": {"name": "Abu_Ghraib", "total": 603}, "geometry": {"type": "Point", "coordinates": [44.082918, 33.29612]}}, {"type": "Feature", "properties": {"name": "Afak Road Houses", "total": 57}, "geometry": {"type": "Point", "coordinates": [44.886024, 31.971957]}}, {"type": "Feature", "properties": {"name": "Aiden  New Alyawa", "total": 295}, "geometry": {"type": "Point", "coordinates": [44.6130416667, 33.7161183333]}}, {"type": "Feature", "properties": {"name": "Al Hussain Medical City", "total": 341}, "geometry": {"type": "Point", "coordinates": [44.0327316667, 32.6070233333]}}, {"type": "Feature", "properties": {"name": "Al Shaabi", "total": 144}, "geometry": {"type": "Point", "coordinates": [44.334775, 35.500745]}}, {"type": "Feature", "properties": {"name": "Al- Amal Al -Manshood", "total": 675}, "geometry": {"type": "Point", "coordinates": [43.85, 33.16]}}, {"type": "Feature", "properties": {"name": "Al-Abadi", "total": 109}, "geometry": {"type": "Point", "coordinates": [44.44, 35.13]}}, {"type": "Feature", "properties": {"name": "Al-Abayechi", "total": 63}, "geometry": {"type": "Point", "coordinates": [44.390423, 33.661975]}}, {"type": "Feature", "properties": {"name": "Al-Ahell", "total": 391}, "geometry": {"type": "Point", "coordinates": [44.083895, 33.283734]}}, {"type": "Feature", "properties": {"name": "Al-Alam", "total": 223}, "geometry": {"type": "Point", "coordinates": [43.701102, 34.710135]}}, {"type": "Feature", "properties": {"name": "Al-Amal", "total": 197}, "geometry": {"type": "Point", "coordinates": [42.25, 32.03]}}, {"type": "Feature", "properties": {"name": "Al-Amal Al-Manshud", "total": 1002}, "geometry": {"type": "Point", "coordinates": [44.034211, 33.307281]}}, {"type": "Feature", "properties": {"name": "Al-Asfar", "total": 709}, "geometry": {"type": "Point", "coordinates": [44.023051, 33.142358]}}, {"type": "Feature", "properties": {"name": "Al-Batar", "total": 32}, "geometry": {"type": "Point", "coordinates": [45.7161566667, 32.5518166667]}}, {"type": "Feature", "properties": {"name": "Al-Habanyia", "total": 1233}, "geometry": {"type": "Point", "coordinates": [43.571611, 33.2448]}}, {"type": "Feature", "properties": {"name": "Al-Malha", "total": 42}, "geometry": {"type": "Point", "coordinates": [44.100683, 35.691301]}}, {"type": "Feature", "properties": {"name": "Al-Mawqee Al-Askary", "total": 70}, "geometry": {"type": "Point", "coordinates": [44.922727, 31.980004]}}, {"type": "Feature", "properties": {"name": "Al-Nabi Younis", "total": 4}, "geometry": {"type": "Point", "coordinates": [44.643067, 33.344709]}}, {"type": "Feature", "properties": {"name": "Al-Nasr Wa Al-Salam", "total": 78}, "geometry": {"type": "Point", "coordinates": [44.029029, 33.309256]}}, {"type": "Feature", "properties": {"name": "Al-Nedaa Mosque", "total": 190}, "geometry": {"type": "Point", "coordinates": [44.384234, 33.37447]}}, {"type": "Feature", "properties": {"name": "Al-Obaidi", "total": 416}, "geometry": {"type": "Point", "coordinates": [41.219072, 34.417309]}}, {"type": "Feature", "properties": {"name": "Al-Rahalyia", "total": 82}, "geometry": {"type": "Point", "coordinates": [43.38848, 32.765046]}}, {"type": "Feature", "properties": {"name": "Al-Salam", "total": 2405}, "geometry": {"type": "Point", "coordinates": [43.85, 33.16]}}, {"type": "Feature", "properties": {"name": "Al-Taawn", "total": 360}, "geometry": {"type": "Point", "coordinates": [44.065528, 34.076353]}}, {"type": "Feature", "properties": {"name": "Al-Wand 1", "total": 275}, "geometry": {"type": "Point", "coordinates": [44.6126683333, 33.7161783333]}}, {"type": "Feature", "properties": {"name": "Alaskan", "total": 545}, "geometry": {"type": "Point", "coordinates": [44.9220183333, 31.99781]}}, {"type": "Feature", "properties": {"name": "Aliawa", "total": 383}, "geometry": {"type": "Point", "coordinates": [45.326362, 34.342164]}}, {"type": "Feature", "properties": {"name": "Aljanib Alsageer", "total": 119}, "geometry": {"type": "Point", "coordinates": [44.0323516667, 32.6067416667]}}, {"type": "Feature", "properties": {"name": "All Mohanaweia And All Salaheias Mawakeb", "total": 6}, "geometry": {"type": "Point", "coordinates": [44.934263, 32.1424]}}, {"type": "Feature", "properties": {"name": "All Shohadaa Complex", "total": 114}, "geometry": {"type": "Point", "coordinates": [47.02127, 30.9715216667]}}, {"type": "Feature", "properties": {"name": "Allai", "total": 35}, "geometry": {"type": "Point", "coordinates": [45.17624, 35.58074]}}, {"type": "Feature", "properties": {"name": "Alqosh", "total": 438}, "geometry": {"type": "Point", "coordinates": [43.098872, 36.736717]}}, {"type": "Feature", "properties": {"name": "Alscak", "total": 3}, "geometry": {"type": "Point", "coordinates": [45.2719416667, 31.339005]}}, {"type": "Feature", "properties": {"name": "Ankawa-Mall", "total": 376}, "geometry": {"type": "Point", "coordinates": [43.991834, 36.237448]}}, {"type": "Feature", "properties": {"name": "Arbat Idp", "total": 11561}, "geometry": {"type": "Point", "coordinates": [45.590574, 35.4344959]}}, {"type": "Feature", "properties": {"name": "Arbat Refugee", "total": 8329}, "geometry": {"type": "Point", "coordinates": [45.59069, 35.43057]}}, {"type": "Feature", "properties": {"name": "Ashti", "total": 2759}, "geometry": {"type": "Point", "coordinates": [45.58862, 35.422128]}}, {"type": "Feature", "properties": {"name": "Awen Eshar", "total": 462}, "geometry": {"type": "Point", "coordinates": [44.07536, 36.1157]}}, {"type": "Feature", "properties": {"name": "Babil Hotel", "total": 754}, "geometry": {"type": "Point", "coordinates": [44.4350483333, 32.5156083333]}}, {"type": "Feature", "properties": {"name": "Baharka", "total": 8142}, "geometry": {"type": "Point", "coordinates": [44.03, 36.31]}}, {"type": "Feature", "properties": {"name": "Bajit Kandala", "total": 14486}, "geometry": {"type": "Point", "coordinates": [42.4409, 37.0535]}}, {"type": "Feature", "properties": {"name": "Bajit Kandala2", "total": 548}, "geometry": {"type": "Point", "coordinates": [42.4409, 37.0535]}}, {"type": "Feature", "properties": {"name": "Bajwan", "total": 78}, "geometry": {"type": "Point", "coordinates": [44.28012, 35.543005]}}, {"type": "Feature", "properties": {"name": "Balad", "total": 1072}, "geometry": {"type": "Point", "coordinates": [44.11873, 34.038703]}}, {"type": "Feature", "properties": {"name": "Bardarash", "total": 10581}, "geometry": {"type": "Point", "coordinates": [43.56717, 36.49315]}}, {"type": "Feature", "properties": {"name": "Barika", "total": 615}, "geometry": {"type": "Point", "coordinates": [45.44, 35.56]}}, {"type": "Feature", "properties": {"name": "Bariz City", "total": 165}, "geometry": {"type": "Point", "coordinates": [45.34055, 35.59222]}}, {"type": "Feature", "properties": {"name": "Bashair", "total": 3}, "geometry": {"type": "Point", "coordinates": [46.24121, 31.0636466667]}}, {"type": "Feature", "properties": {"name": "Basirma", "total": 8372}, "geometry": {"type": "Point", "coordinates": [44.3409937848, 36.4966868474]}}, {"type": "Feature", "properties": {"name": "Basrah 5Miles", "total": 568}, "geometry": {"type": "Point", "coordinates": [47.7596, 30.5497683333]}}, {"type": "Feature", "properties": {"name": "Bazian", "total": 194}, "geometry": {"type": "Point", "coordinates": [45.15723, 35.58311]}}, {"type": "Feature", "properties": {"name": "Berseve 2", "total": 8333}, "geometry": {"type": "Point", "coordinates": [42.85398, 37.1798]}}, {"type": "Feature", "properties": {"name": "Brazilian", "total": 588}, "geometry": {"type": "Point", "coordinates": [44.0281010082, 36.3117550184]}}, {"type": "Feature", "properties": {"name": "Bzsbiz", "total": 28}, "geometry": {"type": "Point", "coordinates": [44.035353, 33.139835]}}, {"type": "Feature", "properties": {"name": "Caravanat Al Zurgan", "total": 145}, "geometry": {"type": "Point", "coordinates": [45.7161266667, 32.551865]}}, {"type": "Feature", "properties": {"name": "Chamchamal", "total": 1761}, "geometry": {"type": "Point", "coordinates": [44.808313, 35.520783]}}, {"type": "Feature", "properties": {"name": "Chamishku", "total": 10589}, "geometry": {"type": "Point", "coordinates": [42.668, 37.178]}}, {"type": "Feature", "properties": {"name": "Dahuk", "total": 888}, "geometry": {"type": "Point", "coordinates": [42.949419, 36.864712]}}, {"type": "Feature", "properties": {"name": "Darashakran", "total": 21139}, "geometry": {"type": "Point", "coordinates": [43.8917179, 36.4718439867]}}, {"type": "Feature", "properties": {"name": "Dawanesh", "total": 65}, "geometry": {"type": "Point", "coordinates": [42.855292, 36.504894]}}, {"type": "Feature", "properties": {"name": "Dawodia", "total": 7238}, "geometry": {"type": "Point", "coordinates": [43.222998, 37.089891]}}, {"type": "Feature", "properties": {"name": "Debaga", "total": 1904}, "geometry": {"type": "Point", "coordinates": [43.9941683333, 36.2194016667]}}, {"type": "Feature", "properties": {"name": "Dokan", "total": 1729}, "geometry": {"type": "Point", "coordinates": [45.4033133333, 35.565845]}}, {"type": "Feature", "properties": {"name": "Domez", "total": 251}, "geometry": {"type": "Point", "coordinates": [44.3766633333, 35.3859183333]}}, {"type": "Feature", "properties": {"name": "Domiz", "total": 6867}, "geometry": {"type": "Point", "coordinates": [42.900624, 36.788012]}}, {"type": "Feature", "properties": {"name": "Domiz2", "total": 2879}, "geometry": {"type": "Point", "coordinates": [42.900624, 36.788012]}}, {"type": "Feature", "properties": {"name": "Ekram Zobaa", "total": 358}, "geometry": {"type": "Point", "coordinates": [43.953276, 33.22936]}}, {"type": "Feature", "properties": {"name": "Erbil", "total": 136}, "geometry": {"type": "Point", "coordinates": [44.0, 36.19]}}, {"type": "Feature", "properties": {"name": "Erbil Center", "total": 67}, "geometry": {"type": "Point", "coordinates": [44.0, 36.19]}}, {"type": "Feature", "properties": {"name": "Esiyan", "total": 80}, "geometry": {"type": "Point", "coordinates": [43.26904, 36.72461]}}, {"type": "Feature", "properties": {"name": "Eyes Of Missan", "total": 1157}, "geometry": {"type": "Point", "coordinates": [47.117555, 31.8490766667]}}, {"type": "Feature", "properties": {"name": "Garmawa", "total": 320}, "geometry": {"type": "Point", "coordinates": [43.237, 36.646885]}}, {"type": "Feature", "properties": {"name": "Gawilan", "total": 11239}, "geometry": {"type": "Point", "coordinates": [43.61581064, 36.33849565]}}, {"type": "Feature", "properties": {"name": "Group In  V. Alhadi", "total": 1}, "geometry": {"type": "Point", "coordinates": [45.3162816667, 31.2573566667]}}, {"type": "Feature", "properties": {"name": "Gulan City", "total": 192}, "geometry": {"type": "Point", "coordinates": [44.035907, 36.309013]}}, {"type": "Feature", "properties": {"name": "Guss Swalem", "total": 1453}, "geometry": {"type": "Point", "coordinates": [44.403805, 32.4185216667]}}, {"type": "Feature", "properties": {"name": "Habeeb Almalih Hc", "total": 1916}, "geometry": {"type": "Point", "coordinates": [44.0110733333, 36.2319566667]}}, {"type": "Feature", "properties": {"name": "Harsham", "total": 3275}, "geometry": {"type": "Point", "coordinates": [43.994913, 36.256285]}}, {"type": "Feature", "properties": {"name": "Hay Al Furat - 1", "total": 6}, "geometry": {"type": "Point", "coordinates": [44.90795, 32.010288]}}, {"type": "Feature", "properties": {"name": "Hay Al Furat - 2", "total": 6}, "geometry": {"type": "Point", "coordinates": [44.902471, 32.019229]}}, {"type": "Feature", "properties": {"name": "Hay Alwasiti", "total": 50}, "geometry": {"type": "Point", "coordinates": [44.348578, 35.420021]}}, {"type": "Feature", "properties": {"name": "Hay Asraa", "total": 148}, "geometry": {"type": "Point", "coordinates": [44.402439, 35.429539]}}, {"type": "Feature", "properties": {"name": "Hevi", "total": 40}, "geometry": {"type": "Point", "coordinates": [43.00589, 36.850119]}}, {"type": "Feature", "properties": {"name": "Huzairan", "total": 50}, "geometry": {"type": "Point", "coordinates": [44.342891, 35.409465]}}, {"type": "Feature", "properties": {"name": "Iraq_Tent\n", "total": 323}, "geometry": {"type": "Point", "coordinates": [44.3564116667, 33.12995]}}, {"type": "Feature", "properties": {"name": "Kabarto 1", "total": 301}, "geometry": {"type": "Point", "coordinates": [42.8549, 36.7863]}}, {"type": "Feature", "properties": {"name": "Kabarto 2", "total": 5604}, "geometry": {"type": "Point", "coordinates": [42.8584683333, 36.78845]}}, {"type": "Feature", "properties": {"name": "Kalak", "total": 236}, "geometry": {"type": "Point", "coordinates": [43.673424, 36.272136]}}, {"type": "Feature", "properties": {"name": "Kasnazan", "total": 92}, "geometry": {"type": "Point", "coordinates": [44.13, 36.2]}}, {"type": "Feature", "properties": {"name": "Kerbala", "total": 219}, "geometry": {"type": "Point", "coordinates": [44.07268, 32.5577783333]}}, {"type": "Feature", "properties": {"name": "Khanke", "total": 12699}, "geometry": {"type": "Point", "coordinates": [42.7709883333, 36.7831166667]}}, {"type": "Feature", "properties": {"name": "Khernabat Agiculture", "total": 1149}, "geometry": {"type": "Point", "coordinates": [44.192407, 33.22229]}}, {"type": "Feature", "properties": {"name": "Kowergosek", "total": 15421}, "geometry": {"type": "Point", "coordinates": [43.8119003543, 36.3453310248]}}, {"type": "Feature", "properties": {"name": "Kumait Cente", "total": 182}, "geometry": {"type": "Point", "coordinates": [46.8829733333, 32.031695]}}, {"type": "Feature", "properties": {"name": "Laylan", "total": 20}, "geometry": {"type": "Point", "coordinates": [45.38222, 35.5795583333]}}, {"type": "Feature", "properties": {"name": "Ma Baina Al Harameen", "total": 120}, "geometry": {"type": "Point", "coordinates": [44.3131433333, 32.176755]}}, {"type": "Feature", "properties": {"name": "Mamilian", "total": 4570}, "geometry": {"type": "Point", "coordinates": [42.9640166667, 36.8715366667]}}, {"type": "Feature", "properties": {"name": "Mamrashan", "total": 134}, "geometry": {"type": "Point", "coordinates": [43.43337, 36.6707116667]}}, {"type": "Feature", "properties": {"name": "Mamzawa", "total": 684}, "geometry": {"type": "Point", "coordinates": [43.96, 36.11]}}, {"type": "Feature", "properties": {"name": "Mangesh\n", "total": 403}, "geometry": {"type": "Point", "coordinates": [43.016503, 36.855727]}}, {"type": "Feature", "properties": {"name": "Mart Shmoni _Kasnazan", "total": 5107}, "geometry": {"type": "Point", "coordinates": [44.1464364713, 36.2062679088]}}, {"type": "Feature", "properties": {"name": "Martshmoony", "total": 12144}, "geometry": {"type": "Point", "coordinates": [43.987, 36.235]}}, {"type": "Feature", "properties": {"name": "Modern Village", "total": 64}, "geometry": {"type": "Point", "coordinates": [44.9179566667, 31.9878833333]}}, {"type": "Feature", "properties": {"name": "Mokb", "total": 15}, "geometry": {"type": "Point", "coordinates": [44.922185, 31.997605]}}, {"type": "Feature", "properties": {"name": "Mosqnes", "total": 25}, "geometry": {"type": "Point", "coordinates": [44.9825216667, 31.7175966667]}}, {"type": "Feature", "properties": {"name": "Mosquest And Modernvillage", "total": 24}, "geometry": {"type": "Point", "coordinates": [44.98245, 31.7175883333]}}, {"type": "Feature", "properties": {"name": "Musharaf Abeet", "total": 116}, "geometry": {"type": "Point", "coordinates": [42.828946, 36.511345]}}, {"type": "Feature", "properties": {"name": "Ozal City", "total": 227}, "geometry": {"type": "Point", "coordinates": [44.1441783333, 36.2246133333]}}, {"type": "Feature", "properties": {"name": "Piramagroon", "total": 1891}, "geometry": {"type": "Point", "coordinates": [45.146834, 35.732901]}}, {"type": "Feature", "properties": {"name": "Qadissia", "total": 57}, "geometry": {"type": "Point", "coordinates": [44.421178, 35.415974]}}, {"type": "Feature", "properties": {"name": "Qaladiza", "total": 410}, "geometry": {"type": "Point", "coordinates": [45.127778, 36.183333]}}, {"type": "Feature", "properties": {"name": "Qoratu", "total": 2356}, "geometry": {"type": "Point", "coordinates": [45.28, 34.63]}}, {"type": "Feature", "properties": {"name": "Qushtapa", "total": 7694}, "geometry": {"type": "Point", "coordinates": [44.0365197678, 35.9822508098]}}, {"type": "Feature", "properties": {"name": "Raberin", "total": 958}, "geometry": {"type": "Point", "coordinates": [45.24527778, 34.65944444]}}, {"type": "Feature", "properties": {"name": "Raniya", "total": 2091}, "geometry": {"type": "Point", "coordinates": [45.44, 35.56]}}, {"type": "Feature", "properties": {"name": "Saad", "total": 161}, "geometry": {"type": "Point", "coordinates": [44.6127366667, 33.716135]}}, {"type": "Feature", "properties": {"name": "Saba Al Bor", "total": 135}, "geometry": {"type": "Point", "coordinates": [44.15151, 33.459903]}}, {"type": "Feature", "properties": {"name": "Said Alshuhdaa", "total": 509}, "geometry": {"type": "Point", "coordinates": [44.3249583333, 32.1200216667]}}, {"type": "Feature", "properties": {"name": "Said Sadiq", "total": 96}, "geometry": {"type": "Point", "coordinates": [45.86605, 35.36078]}}, {"type": "Feature", "properties": {"name": "Salah-Aga", "total": 61}, "geometry": {"type": "Point", "coordinates": [45.28, 34.63]}}, {"type": "Feature", "properties": {"name": "Samagur", "total": 19}, "geometry": {"type": "Point", "coordinates": [44.641925, 34.885764]}}, {"type": "Feature", "properties": {"name": "Says City", "total": 251}, "geometry": {"type": "Point", "coordinates": [45.68, 35.11]}}, {"type": "Feature", "properties": {"name": "Seage", "total": 4172}, "geometry": {"type": "Point", "coordinates": [42.8863416667, 36.91248]}}, {"type": "Feature", "properties": {"name": "Seberden", "total": 901}, "geometry": {"type": "Point", "coordinates": [44.1002, 36.2039]}}, {"type": "Feature", "properties": {"name": "Shahan City", "total": 2273}, "geometry": {"type": "Point", "coordinates": [44.1249686801, 36.2296125444]}}, {"type": "Feature", "properties": {"name": "Shaqlawa", "total": 1250}, "geometry": {"type": "Point", "coordinates": [44.3185845522, 36.4078930636]}}, {"type": "Feature", "properties": {"name": "Sharya", "total": 27866}, "geometry": {"type": "Point", "coordinates": [42.96181, 36.79687]}}, {"type": "Feature", "properties": {"name": "Shawees", "total": 393}, "geometry": {"type": "Point", "coordinates": [44.08, 36.24]}}, {"type": "Feature", "properties": {"name": "Shikhan", "total": 10604}, "geometry": {"type": "Point", "coordinates": [43.26904, 36.72461]}}, {"type": "Feature", "properties": {"name": "Shoraw", "total": 7}, "geometry": {"type": "Point", "coordinates": [44.395465, 35.522177]}}, {"type": "Feature", "properties": {"name": "Silo Road", "total": 42}, "geometry": {"type": "Point", "coordinates": [44.908741, 31.927306]}}, {"type": "Feature", "properties": {"name": "Sitak", "total": 151}, "geometry": {"type": "Point", "coordinates": [45.44, 35.56]}}, {"type": "Feature", "properties": {"name": "Sulaymaniyah", "total": 1149}, "geometry": {"type": "Point", "coordinates": [45.2288683333, 35.6296916667]}}, {"type": "Feature", "properties": {"name": "Sulaymaniyah Center", "total": 235}, "geometry": {"type": "Point", "coordinates": [45.44, 35.56]}}, {"type": "Feature", "properties": {"name": "Takya", "total": 960}, "geometry": {"type": "Point", "coordinates": [44.3691483333, 33.2256666667]}}, {"type": "Feature", "properties": {"name": "Tanjaro", "total": 92}, "geometry": {"type": "Point", "coordinates": [45.592762, 35.42836]}}, {"type": "Feature", "properties": {"name": "Tarmiya", "total": 209}, "geometry": {"type": "Point", "coordinates": [44.382769, 33.662647]}}, {"type": "Feature", "properties": {"name": "Tazar De", "total": 1977}, "geometry": {"type": "Point", "coordinates": [45.44898, 34.70576]}}, {"type": "Feature", "properties": {"name": "Topaskar", "total": 29}, "geometry": {"type": "Point", "coordinates": [45.28, 34.63]}}, {"type": "Feature", "properties": {"name": "Topzawa", "total": 190}, "geometry": {"type": "Point", "coordinates": [44.2797966667, 35.3939066667]}}, {"type": "Feature", "properties": {"name": "Turkalan", "total": 63}, "geometry": {"type": "Point", "coordinates": [44.2766183333, 35.3797433333]}}, {"type": "Feature", "properties": {"name": "Um _Baneen", "total": 3228}, "geometry": {"type": "Point", "coordinates": [44.0323666667, 32.6068866667]}}, {"type": "Feature", "properties": {"name": "Wana", "total": 4694}, "geometry": {"type": "Point", "coordinates": [42.84, 36.85]}}, {"type": "Feature", "properties": {"name": "Ya Hussien", "total": 51}, "geometry": {"type": "Point", "coordinates": [44.32, 32.015277]}}, {"type": "Feature", "properties": {"name": "Yahyawa", "total": 2092}, "geometry": {"type": "Point", "coordinates": [44.4941966667, 35.3266966667]}}, {"type": "Feature", "properties": {"name": "Zawita", "total": 1844}, "geometry": {"type": "Point", "coordinates": [43.12, 36.9]}}, {"type": "Feature", "properties": {"name": "Zaytona", "total": 5544}, "geometry": {"type": "Point", "coordinates": [44.0709, 36.1417]}}, {"type": "Feature", "properties": {"name": "Zeren City", "total": 25}, "geometry": {"type": "Point", "coordinates": [44.0726893059, 36.2667830336]}}, {"type": "Feature", "properties": {"name": "Zubydia", "total": 21}, "geometry": {"type": "Point", "coordinates": [45.1595183333, 32.77424]}}, {"type": "Feature", "properties": {"name": "Zummar", "total": 1816}, "geometry": {"type": "Point", "coordinates": [42.63, 36.76]}}]}