{"type": "FeatureCollection","crs":                     {"type": "name", "properties": { "name":                     "urn:ogc:def:crs:OGC:1.3:CRS84" } },"features": [{"type": "Feature", "properties": {"name": "Abaiji", "total": 15}, "geometry": {"type": "Point", "coordinates": [44.376268, 33.769104]}}, {"type": "Feature", "properties": {"name": "Abu_Ghraib", "total": 7}, "geometry": {"type": "Point", "coordinates": [44.082918, 33.29612]}}, {"type": "Feature", "properties": {"name": "Aiden  New Alyawa", "total": 391}, "geometry": {"type": "Point", "coordinates": [44.6130416667, 33.7161183333]}}, {"type": "Feature", "properties": {"name": "Al Hussain Medical City", "total": 14}, "geometry": {"type": "Point", "coordinates": [44.0327316667, 32.6070233333]}}, {"type": "Feature", "properties": {"name": "Al-Ahel", "total": 18}, "geometry": {"type": "Point", "coordinates": [44.083895, 33.283734]}}, {"type": "Feature", "properties": {"name": "Al-Amal", "total": 221}, "geometry": {"type": "Point", "coordinates": [42.25, 32.03]}}, {"type": "Feature", "properties": {"name": "Al-Amal Al-Manshud", "total": 4}, "geometry": {"type": "Point", "coordinates": [44.034211, 33.307281]}}, {"type": "Feature", "properties": {"name": "Al-Batar", "total": 4}, "geometry": {"type": "Point", "coordinates": [45.7161566667, 32.5518166667]}}, {"type": "Feature", "properties": {"name": "Al-Mahdi", "total": 4}, "geometry": {"type": "Point", "coordinates": [45.2400633333, 31.3238933333]}}, {"type": "Feature", "properties": {"name": "Al-Nabi Younis", "total": 4}, "geometry": {"type": "Point", "coordinates": [44.643067, 33.344709]}}, {"type": "Feature", "properties": {"name": "Al-Nedaa Mosque", "total": 4}, "geometry": {"type": "Point", "coordinates": [44.384234, 33.37447]}}, {"type": "Feature", "properties": {"name": "Al-Salam", "total": 194}, "geometry": {"type": "Point", "coordinates": [43.85, 33.16]}}, {"type": "Feature", "properties": {"name": "Al-Wand 1", "total": 271}, "geometry": {"type": "Point", "coordinates": [44.6126683333, 33.7161783333]}}, {"type": "Feature", "properties": {"name": "Aliawa", "total": 6}, "geometry": {"type": "Point", "coordinates": [45.326362, 34.342164]}}, {"type": "Feature", "properties": {"name": "Aljanib Alsageer", "total": 6}, "geometry": {"type": "Point", "coordinates": [44.0323516667, 32.6067416667]}}, {"type": "Feature", "properties": {"name": "All Shohadaa Complex", "total": 6}, "geometry": {"type": "Point", "coordinates": [47.02127, 30.9715216667]}}, {"type": "Feature", "properties": {"name": "Ankawa-Mall", "total": 53}, "geometry": {"type": "Point", "coordinates": [43.99, 36.22]}}, {"type": "Feature", "properties": {"name": "Arbat Idp", "total": 1491}, "geometry": {"type": "Point", "coordinates": [45.590574, 35.4344959]}}, {"type": "Feature", "properties": {"name": "Arbat Refugee", "total": 437}, "geometry": {"type": "Point", "coordinates": [45.59069, 35.43057]}}, {"type": "Feature", "properties": {"name": "Ashti", "total": 273}, "geometry": {"type": "Point", "coordinates": [45.58862, 35.422128]}}, {"type": "Feature", "properties": {"name": "Awen Eshar", "total": 267}, "geometry": {"type": "Point", "coordinates": [44.07536, 36.1157]}}, {"type": "Feature", "properties": {"name": "Babil Hotel", "total": 81}, "geometry": {"type": "Point", "coordinates": [44.4350483333, 32.5156083333]}}, {"type": "Feature", "properties": {"name": "Baharka", "total": 161}, "geometry": {"type": "Point", "coordinates": [44.03, 36.31]}}, {"type": "Feature", "properties": {"name": "Bajit Kandala", "total": 2032}, "geometry": {"type": "Point", "coordinates": [42.4409, 37.0535]}}, {"type": "Feature", "properties": {"name": "Bajit Kandala2", "total": 1092}, "geometry": {"type": "Point", "coordinates": [42.4409, 37.0535]}}, {"type": "Feature", "properties": {"name": "Bardarash", "total": 1515}, "geometry": {"type": "Point", "coordinates": [43.56717, 36.49315]}}, {"type": "Feature", "properties": {"name": "Barika", "total": 90}, "geometry": {"type": "Point", "coordinates": [45.44, 35.56]}}, {"type": "Feature", "properties": {"name": "Bariz City", "total": 18}, "geometry": {"type": "Point", "coordinates": [45.44, 35.56]}}, {"type": "Feature", "properties": {"name": "Basirma", "total": 397}, "geometry": {"type": "Point", "coordinates": [44.3667, 36.4833]}}, {"type": "Feature", "properties": {"name": "Basrah 5Miles", "total": 23}, "geometry": {"type": "Point", "coordinates": [47.7596, 30.5497683333]}}, {"type": "Feature", "properties": {"name": "Berseve 2", "total": 1643}, "geometry": {"type": "Point", "coordinates": [42.85398, 37.1798]}}, {"type": "Feature", "properties": {"name": "Brazilian", "total": 31}, "geometry": {"type": "Point", "coordinates": [44.03, 36.31]}}, {"type": "Feature", "properties": {"name": "Caravanat Al Zurgan", "total": 2}, "geometry": {"type": "Point", "coordinates": [45.7161266667, 32.551865]}}, {"type": "Feature", "properties": {"name": "Chamchamal", "total": 273}, "geometry": {"type": "Point", "coordinates": [44.837565, 35.5288]}}, {"type": "Feature", "properties": {"name": "Chamishku", "total": 1326}, "geometry": {"type": "Point", "coordinates": [42.668, 37.178]}}, {"type": "Feature", "properties": {"name": "Darashakran", "total": 837}, "geometry": {"type": "Point", "coordinates": [43.893692, 36.46948]}}, {"type": "Feature", "properties": {"name": "Dawodia", "total": 938}, "geometry": {"type": "Point", "coordinates": [43.222998, 37.089891]}}, {"type": "Feature", "properties": {"name": "Debaga", "total": 250}, "geometry": {"type": "Point", "coordinates": [43.9940783333, 36.2194683333]}}, {"type": "Feature", "properties": {"name": "Dokan", "total": 95}, "geometry": {"type": "Point", "coordinates": [45.44, 35.56]}}, {"type": "Feature", "properties": {"name": "Domiz", "total": 788}, "geometry": {"type": "Point", "coordinates": [42.900624, 36.788012]}}, {"type": "Feature", "properties": {"name": "Domiz2", "total": 653}, "geometry": {"type": "Point", "coordinates": [42.900624, 36.788012]}}, {"type": "Feature", "properties": {"name": "Ekram Zobaa", "total": 40}, "geometry": {"type": "Point", "coordinates": [43.953276, 33.22936]}}, {"type": "Feature", "properties": {"name": "Erbil", "total": 19}, "geometry": {"type": "Point", "coordinates": [44.0, 36.19]}}, {"type": "Feature", "properties": {"name": "Erbil Center", "total": 303}, "geometry": {"type": "Point", "coordinates": [44.0, 36.19]}}, {"type": "Feature", "properties": {"name": "Esiyan", "total": 272}, "geometry": {"type": "Point", "coordinates": [43.26904, 36.72461]}}, {"type": "Feature", "properties": {"name": "Eyes Of Missan", "total": 35}, "geometry": {"type": "Point", "coordinates": [47.117555, 31.8490766667]}}, {"type": "Feature", "properties": {"name": "Garmawa", "total": 125}, "geometry": {"type": "Point", "coordinates": [43.237, 36.646885]}}, {"type": "Feature", "properties": {"name": "Gawilan", "total": 298}, "geometry": {"type": "Point", "coordinates": [43.61581064, 36.33849565]}}, {"type": "Feature", "properties": {"name": "Group In  V. Alhadi", "total": 1}, "geometry": {"type": "Point", "coordinates": [45.3162816667, 31.2573566667]}}, {"type": "Feature", "properties": {"name": "Guss Swalem", "total": 25}, "geometry": {"type": "Point", "coordinates": [44.403805, 32.4185216667]}}, {"type": "Feature", "properties": {"name": "Habeeb Almalih Hc", "total": 23}, "geometry": {"type": "Point", "coordinates": [44.0110733333, 36.2319566667]}}, {"type": "Feature", "properties": {"name": "Harsham", "total": 32}, "geometry": {"type": "Point", "coordinates": [43.994913, 36.256285]}}, {"type": "Feature", "properties": {"name": "Hay Alwasiti", "total": 5}, "geometry": {"type": "Point", "coordinates": [44.348578, 35.420021]}}, {"type": "Feature", "properties": {"name": "Hay Asraa", "total": 16}, "geometry": {"type": "Point", "coordinates": [44.402439, 35.429539]}}, {"type": "Feature", "properties": {"name": "Hevi", "total": 77}, "geometry": {"type": "Point", "coordinates": [43.00589, 36.850119]}}, {"type": "Feature", "properties": {"name": "Iraq Tent\n", "total": 121}, "geometry": {"type": "Point", "coordinates": [44.3564116667, 33.12995]}}, {"type": "Feature", "properties": {"name": "Kabarto 2", "total": 687}, "geometry": {"type": "Point", "coordinates": [42.8584683333, 36.78845]}}, {"type": "Feature", "properties": {"name": "Khanke", "total": 376}, "geometry": {"type": "Point", "coordinates": [42.7709883333, 36.7831166667]}}, {"type": "Feature", "properties": {"name": "Kowergosek", "total": 544}, "geometry": {"type": "Point", "coordinates": [43.8112815, 36.3460809]}}, {"type": "Feature", "properties": {"name": "Kumait Cente", "total": 1}, "geometry": {"type": "Point", "coordinates": [46.8829733333, 32.031695]}}, {"type": "Feature", "properties": {"name": "Ma Baina Al Harameen", "total": 12}, "geometry": {"type": "Point", "coordinates": [44.3131433333, 32.176755]}}, {"type": "Feature", "properties": {"name": "Mamilian", "total": 1099}, "geometry": {"type": "Point", "coordinates": [42.9640166667, 36.8715366667]}}, {"type": "Feature", "properties": {"name": "Mangesh\n", "total": 62}, "geometry": {"type": "Point", "coordinates": [43.016503, 36.855727]}}, {"type": "Feature", "properties": {"name": "Martshmoony", "total": 239}, "geometry": {"type": "Point", "coordinates": [43.987, 36.235]}}, {"type": "Feature", "properties": {"name": "Modern Village", "total": 12}, "geometry": {"type": "Point", "coordinates": [44.9179566667, 31.9878833333]}}, {"type": "Feature", "properties": {"name": "Mokb", "total": 15}, "geometry": {"type": "Point", "coordinates": [44.922185, 31.997605]}}, {"type": "Feature", "properties": {"name": "Piramagroon", "total": 142}, "geometry": {"type": "Point", "coordinates": [45.146705, 35.7328933333]}}, {"type": "Feature", "properties": {"name": "Qaladiza", "total": 88}, "geometry": {"type": "Point", "coordinates": [45.127778, 36.183333]}}, {"type": "Feature", "properties": {"name": "Qoratu", "total": 227}, "geometry": {"type": "Point", "coordinates": [45.28, 34.63]}}, {"type": "Feature", "properties": {"name": "Qushtapa", "total": 407}, "geometry": {"type": "Point", "coordinates": [43.98089111, 36.019313]}}, {"type": "Feature", "properties": {"name": "Raniya", "total": 227}, "geometry": {"type": "Point", "coordinates": [45.44, 35.56]}}, {"type": "Feature", "properties": {"name": "Saad", "total": 182}, "geometry": {"type": "Point", "coordinates": [44.6127366667, 33.716135]}}, {"type": "Feature", "properties": {"name": "Said Alshuhdaa", "total": 42}, "geometry": {"type": "Point", "coordinates": [44.3249583333, 32.1200216667]}}, {"type": "Feature", "properties": {"name": "Says City", "total": 35}, "geometry": {"type": "Point", "coordinates": [45.68, 35.11]}}, {"type": "Feature", "properties": {"name": "Seagy", "total": 259}, "geometry": {"type": "Point", "coordinates": [42.8863416667, 36.91248]}}, {"type": "Feature", "properties": {"name": "Shahan City", "total": 95}, "geometry": {"type": "Point", "coordinates": [44.0, 36.19]}}, {"type": "Feature", "properties": {"name": "Shaqlawa", "total": 187}, "geometry": {"type": "Point", "coordinates": [44.33, 36.39]}}, {"type": "Feature", "properties": {"name": "Sharya", "total": 2956}, "geometry": {"type": "Point", "coordinates": [42.96181, 36.79687]}}, {"type": "Feature", "properties": {"name": "Shikhan", "total": 1003}, "geometry": {"type": "Point", "coordinates": [43.26904, 36.72461]}}, {"type": "Feature", "properties": {"name": "Sitak", "total": 8}, "geometry": {"type": "Point", "coordinates": [45.44, 35.56]}}, {"type": "Feature", "properties": {"name": "Sulaymaniyah", "total": 275}, "geometry": {"type": "Point", "coordinates": [45.44, 35.56]}}, {"type": "Feature", "properties": {"name": "Sulaymaniyah Center", "total": 17}, "geometry": {"type": "Point", "coordinates": [45.44, 35.56]}}, {"type": "Feature", "properties": {"name": "Takya", "total": 171}, "geometry": {"type": "Point", "coordinates": [44.3691483333, 33.2256666667]}}, {"type": "Feature", "properties": {"name": "Um _Baneen", "total": 59}, "geometry": {"type": "Point", "coordinates": [44.0323666667, 32.6068866667]}}, {"type": "Feature", "properties": {"name": "Wana", "total": 763}, "geometry": {"type": "Point", "coordinates": [42.84, 36.85]}}, {"type": "Feature", "properties": {"name": "Yayawah", "total": 27}, "geometry": {"type": "Point", "coordinates": [44.4941966667, 35.3266966667]}}, {"type": "Feature", "properties": {"name": "Zawita", "total": 254}, "geometry": {"type": "Point", "coordinates": [43.12, 36.9]}}, {"type": "Feature", "properties": {"name": "Zaytona", "total": 478}, "geometry": {"type": "Point", "coordinates": [44.0709, 36.1417]}}, {"type": "Feature", "properties": {"name": "Zummar", "total": 444}, "geometry": {"type": "Point", "coordinates": [42.63, 36.76]}}]}